unix_time_ms,sys_time_ms,robot_mode,mpc_step,ref_lat_deg,ref_lon_deg,nearest_traj_index,traj_error_x_m,traj_error_y_m,traj_error_abs_m,raw_dx_m,raw_dy_m,raw_speed_m_s,raw_vyaw_rad_s,mhe_dx_m,mhe_dy_m,mhe_speed_m_s,mhe_yaw_rad,traj_ref_yaw_rad,mpc_output_vyaw_rad_s,yaw_PWM,throttle_PWM,latitude_deg,longitude_deg,vpitch_rad_s,vroll_rad_s,pitch_rad,roll_rad,sonar_meas_m,ultrasonic meas_m,GPS_time_stamp_h_m_s_ms,yaw_cmd,throttle,enc_speed_left_m_s,enc_speed_right_m_s
1508264367327,124327,RC,0,40.1021787433,-88.2267358693,0,21.8613934605,0.0000002665,21.8613934605,21.8617035324,12.7265929389,0.0000000000,-0.0181077910,21.8613934605,12.7245924753,0.0000000000,-0.1945937342,0.0000000000,0.0000000000,1500,1500,40.1022931963,-88.2269929068,0.0061813744,-0.0003636103,0.0000000000,0.0000000000,0.0000000000,0.0000000000,181855,0.0000000000,0.0000000000,0.0000000000,0.0000000000
1508264367527,124527,RC,0,40.1021787433,-88.2267358693,0,21.8614536819,0.0000000520,21.8614536819,21.8618169357,12.7270562518,0.0000000000,-0.0141808002,21.8614536819,12.7250824495,0.0000000000,-0.1963970618,0.0000000000,0.0000000000,1500,1500,40.1022932005,-88.2269929082,0.0043633231,-0.0012362749,0.0000000000,0.0000000000,0.0000000000,0.0000000000,181855,0.0000000000,0.0000000000,0.0000000000,0.0000000000
1508264367728,124728,RC,0,40.1021787433,-88.2267358693,0,21.8614900102,0.0000000201,21.8614900102,21.8621146209,12.7268153290,0.0000000000,-0.0191258997,21.8614900102,12.7255573473,-0.0000000000,-0.1978093063,0.0000000000,0.0000000000,1500,1500,40.1022931983,-88.2269929117,0.0029816041,0.0203621746,0.0000000000,0.0000000000,0.0000000000,0.0000000000,181855,0.0000000000,0.0000000000,0.0000000000,0.0000000000
1508264367928,124928,RC,0,40.1021787433,-88.2267358693,0,21.8616751483,-0.0000004235,21.8616751483,21.8626391075,12.7295952022,0.0000000000,-0.0242164434,21.8616751483,12.7260299262,-0.0000000000,-0.1997140259,0.0000000000,0.0000000000,1500,1500,40.1022932233,-88.2269929178,0.0050178216,0.0001454441,0.0000000000,0.0000000000,0.0000000000,0.0000000000,181856,0.0000000000,0.0000000000,0.0000000000,0.0000000000
1508264368128,125128,RC,0,40.1021787433,-88.2267358693,0,21.8617035279,0.0000000857,21.8617035279,21.8619161602,12.7294469423,0.0000000000,-0.0204348967,21.8617035279,12.7264862917,0.0000000000,-0.2021257050,0.0000000000,0.0000000000,1500,1500,40.1022932220,-88.2269929093,0.0047996554,0.0007999426,0.0000000000,0.0000000000,0.0000000000,0.0000000000,181856,0.0000000000,0.0000000000,0.0000000000,0.0000000000
1508264368329,125329,RC,0,40.1021787433,-88.2267358693,0,21.8616397548,-0.0000004262,21.8616397548,21.8613916653,12.7324306730,0.0711759776,-0.0190531777,21.8616397548,12.7270827799,-0.0000000000,-0.2041607855,0.0000000000,0.0000000000,1500,1135,40.1022932488,-88.2269929032,0.0073449273,-0.0477783883,0.0000000000,0.0000000000,0.0000000000,0.0000000000,181856,0.0000000000,0.7281460762,0.0626348630,0.0797170922
1508264368529,125529,RC,0,40.1021787433,-88.2267358693,0,21.8713846534,0.0000002815,21.8713846534,21.8591803019,12.7295581370,0.4071591198,0.0607956356,21.8713846534,12.7254822685,0.0097264123,-0.2060582628,0.0000000000,0.0000000000,1500,1000,40.1022932230,-88.2269928772,-0.0555596479,0.0653044028,0.0000000000,0.0000000000,0.0000000000,0.0000000000,181856,0.0000000000,1.0000000000,0.3587555885,0.4555626512
1508264368730,125730,RC,0,40.1021787433,-88.2267358693,0,21.8896337850,0.0000000314,21.8896337850,21.8593504060,12.7307998137,0.6121684313,0.0181077910,21.8896337850,12.7222223596,0.0279513300,-0.1994772086,0.0000000000,0.0000000000,1500,1000,40.1022932342,-88.2269928792,-0.0258163285,-0.0690132275,0.0000000000,0.0000000000,0.0000000000,0.0000000000,181856,0.0000000000,1.0000000000,0.6264049411,0.5979319811
1508264368931,125931,RC,0,40.1021787433,-88.2267358693,0,21.9118355306,0.0000004096,21.9118355306,21.8672603359,12.7029084198,0.6961636543,0.0630500192,21.9118355306,12.7165025993,0.0548559264,-0.1988582591,0.0000000000,0.0000000000,1500,1000,40.1022929833,-88.2269929722,0.0754127681,-0.0358519717,0.0000000000,0.0000000000,0.0000000000,0.0000000000,181857,0.0000000000,1.0000000000,0.7203656435,0.6719616652
1508264369131,126131,RC,0,40.1021787433,-88.2267358693,0,21.9256331189,0.0000004030,21.9256331189,21.8702798818,12.5791114016,0.7018651962,0.1771509191,21.9256331189,12.7035068728,0.0990041996,-0.2164508649,0.0000000000,0.0000000000,1500,1000,40.1022918700,-88.2269930077,-0.2502365815,0.2241293648,0.0000000000,0.0000000000,0.0000000000,0.0000000000,181857,0.0000000000,1.0000000000,0.7459987402,0.6577317119
1508264369332,126332,RC,0,40.1021787433,-88.2267358693,0,21.9133269570,-0.0000004527,21.9133269570,21.8925213494,12.4295171602,0.7132474184,-0.0578867535,21.9133269570,12.6844697240,0.1665614217,-0.2650525391,0.0000000000,0.0000000000,1500,1000,40.1022905247,-88.2269932692,0.2051489092,-0.2458732584,0.0000000000,0.0000000000,0.0000000000,0.0000000000,181857,0.0000000000,1.0000000000,0.7260602713,0.7004345655
1508264369532,126532,RC,0,40.1021787433,-88.2267358693,0,21.9094815831,-0.0000001334,21.9094815831,21.8886516594,12.2888185125,0.6933163404,0.1950405439,21.9094815831,12.6563376046,0.2189367153,-0.3458095384,0.0000000000,0.0000000000,1500,1000,40.1022892593,-88.2269932237,-0.1519163670,0.3084869453,0.0000000000,0.0000000000,0.0000000000,0.0000000000,181857,0.0000000000,1.0000000000,0.6662670374,0.7203656435
1508264369733,126733,RC,0,40.1021787433,-88.2267358693,0,21.9423248217,0.0000004021,21.9423248217,21.8936274239,12.1591466957,0.6591488123,-0.0012362749,21.9423248217,12.5986694542,0.2645198399,-0.5058137334,0.0000000000,0.0000000000,1500,1000,40.1022880932,-88.2269932822,-0.1270454251,0.0464693913,0.0000000000,0.0000000000,0.0000000000,0.0000000000,181857,0.0000000000,1.0000000000,0.6947399974,0.6235576272
1508264369933,126933,RC,0,40.1021787433,-88.2267358693,0,21.9928799883,-0.0000002515,21.9928799883,21.9158405164,12.0267320710,0.6833576560,-0.0234165008,21.9928799883,12.4825694430,0.3073437012,-0.8780809851,0.0000000000,0.0000000000,1500,1000,40.1022869023,-88.2269935433,0.2441279291,-0.2935789246,0.0000000000,0.0000000000,0.0000000000,0.0000000000,181858,0.0000000000,1.0000000000,0.6121745706,0.7545407414
1508264370134,127134,RC,0,40.1021787433,-88.2267358693,0,22.0023357030,-0.0000001994,22.0023357030,21.9129205589,11.9013227261,0.6548908949,0.0797033692,22.0023357030,12.2513749990,0.3508195920,-1.3482082042,0.0000000000,0.0000000000,1500,1000,40.1022857745,-88.2269935090,-0.4698571790,-0.0425424005,0.0000000000,0.0000000000,0.0000000000,0.0000000000,181858,0.0000000000,1.0000000000,0.6748223901,0.6349594593
1508264370334,127334,RC,0,40.1021787433,-88.2267358693,0,21.9379702238,0.0000004448,21.9379702238,21.9587215506,11.7818437774,0.6904828548,0.1024653715,21.9379702238,12.0204872765,0.3933935155,-1.4583267699,0.0000000000,0.0000000000,1500,1000,40.1022847000,-88.2269940475,0.0810123661,0.0138899120,0.0000000000,0.0000000000,0.0000000000,0.0000000000,181858,0.0000000000,1.0000000000,0.7346168160,0.6463488936
1508264370535,127535,RC,0,40.1021787433,-88.2267358693,0,21.9400313894,0.0000003194,21.9400313894,21.9693674928,11.6498739316,0.6833576560,0.0088720904,21.9400313894,11.8529876089,0.4326749354,-1.4460118004,0.0000000000,0.0000000000,1500,1000,40.1022835132,-88.2269941727,-0.0573776992,0.1114101839,0.0000000000,0.0000000000,0.0000000000,0.0000000000,181858,0.0000000000,1.0000000000,0.7004415989,0.6662737131
1508264370735,127735,RC,0,40.1021787433,-88.2267358693,0,21.9636442569,-0.0000001231,21.9636442569,21.9994338016,11.4991306764,0.7403041124,-0.0744673814,21.9636442569,11.6828449926,0.4775709760,-1.4402187166,0.0000000000,0.0000000000,1500,1000,40.1022821575,-88.2269945262,0.4748750006,-0.1194823317,0.0000000000,0.0000000000,0.0000000000,0.0000000000,181858,0.0000000000,1.0000000000,0.7232201695,0.7573880553
1508264370936,127936,RC,0,40.1021787433,-88.2267358693,0,21.9860973399,-0.0000003397,21.9860973399,22.0069611461,11.3684951708,0.6618770361,0.0458148929,21.9860973399,11.5104347647,0.5190183299,-1.4467074667,0.0000000000,0.0000000000,1500,1000,40.1022809827,-88.2269946147,-0.2702351459,0.2174389360,0.0000000000,0.0000000000,0.0000000000,0.0000000000,181859,0.0000000000,1.0000000000,0.6291390657,0.6946150661
1508264371136,128136,RC,0,40.1021787433,-88.2267358693,0,22.0127774858,0.0000003537,22.0127774858,22.0437040397,11.2495907284,0.6890522838,0.0179623469,22.0127774858,11.3408578595,0.5630965372,-1.4366537896,0.0000000000,0.0000000000,1500,1000,40.1022799133,-88.2269950467,0.2556180134,0.0302523737,0.0000000000,0.0000000000,0.0000000000,0.0000000000,181859,0.0000000000,1.0000000000,0.7403041124,0.6378004551
1508264371337,128337,RC,0,40.1021787433,-88.2267358693,0,22.0378646613,-0.0000004479,22.0378646613,22.0533151899,11.1070017667,0.6904621124,-0.0162897397,22.0378646613,11.1719317726,0.6043777249,-1.4327040759,0.0000000000,0.0000000000,1500,1000,40.1022786310,-88.2269951597,0.0528689319,-0.2061670179,0.0000000000,0.0000000000,0.0000000000,0.0000000000,181859,0.0000000000,1.0000000000,0.6918857694,0.6890385151
1508264371537,128537,RC,0,40.1021787433,-88.2267358693,0,22.0606615396,-0.0000002154,22.0606615396,22.0654636864,11.0031271739,0.6534607410,0.1258818723,22.0606615396,11.0151050321,0.6462598057,-1.4333579082,0.0000000000,0.0000000000,1500,1000,40.1022776968,-88.2269953025,-0.1432624428,0.1588976840,0.0000000000,0.0000000000,0.0000000000,0.0000000000,181859,0.0000000000,1.0000000000,0.6719683409,0.6349531412
1508264371738,128738,RC,0,40.1021787433,-88.2267358693,0,22.0850169173,0.0000001819,22.0850169173,22.0938856518,10.8508642541,0.6805170774,-0.0287979327,22.0850169173,10.8621379764,0.6729912186,-1.4179488158,0.0000000000,0.0000000000,1500,1000,40.1022763275,-88.2269956367,0.0068358729,-0.0012362749,0.0000000000,0.0000000000,0.0000000000,0.0000000000,181859,0.0000000000,1.0000000000,0.6292647719,0.7317694426
1508264371938,128938,RC,0,40.1021787433,-88.2267358693,0,22.1079211032,-0.0000003784,22.1079211032,22.1095355247,10.7162813284,0.7075669765,-0.0271980475,22.1079211032,10.7198349030,0.6867937417,-1.4191743285,0.0000000000,0.0000000000,1500,1000,40.1022751172,-88.2269958207,0.0445058959,0.0761399886,0.0000000000,0.0000000000,0.0000000000,0.0000000000,181900,0.0000000000,1.0000000000,0.6947538853,0.7203800678
1508264372139,129139,RC,0,40.1021787433,-88.2267358693,0,22.1304370507,0.0000001259,22.1304370507,22.1325140881,10.5884998241,0.6919134259,0.0063268185,22.1304370507,10.5892306633,0.6890374457,-1.4189849568,0.0000000000,0.0000000000,1500,1000,40.1022739680,-88.2269960908,0.2127847246,0.0041451570,0.0000000000,0.0000000000,0.0000000000,0.0000000000,181900,0.0000000000,1.0000000000,0.7175398469,0.6662870049
1508264372339,129339,RC,0,40.1021787433,-88.2267358693,0,22.1534853235,0.0000002986,22.1534853235,22.1585828946,10.4617932055,0.6762393117,-0.2415826573,22.1534853235,10.4609377986,0.6881960064,-1.4147341205,0.0000000000,0.0000000000,1500,1000,40.1022728285,-88.2269963973,-0.3635375388,-0.2281290776,0.0000000000,0.0000000000,0.0000000000,0.0000000000,181900,0.0000000000,1.0000000000,0.6406477690,0.7118308544
1508264372540,129540,RC,0,40.1021787433,-88.2267358693,0,22.1747022316,-0.0000004538,22.1747022316,22.1720497491,10.3296936331,0.6748426557,0.0711948891,22.1747022316,10.3303857080,0.6866675978,-1.4381738929,0.0000000000,0.0000000000,1500,1000,40.1022716405,-88.2269965557,-0.0421060682,0.0853756892,0.0000000000,0.0000000000,0.0000000000,0.0000000000,181900,0.0000000000,1.0000000000,0.6805375218,0.6691477895
1508264372740,129740,RC,0,40.1021787433,-88.2267358693,0,22.1984210893,0.0000002564,22.1984210893,22.2135130981,10.1874938541,0.7072913647,-0.0384699656,22.1984210893,10.1959803285,0.6872070957,-1.4255604368,0.0000000000,0.0000000000,1500,1000,40.1022703617,-88.2269970432,0.0868301303,-0.0071994832,0.0000000000,0.0000000000,0.0000000000,0.0000000000,181900,0.0000000000,1.0000000000,0.7172532082,0.6973295212
1508264372941,129941,RC,0,40.1021787433,-88.2267358693,0,22.2228959756,0.0000003075,22.2228959756,22.2412829445,10.0701461413,0.6805034876,-0.0986838248,22.2228959756,10.0651152825,0.6857945330,-1.4258227716,0.0000000000,0.0000000000,1500,1000,40.1022693063,-88.2269973697,0.2161299390,-0.1518436449,0.0000000000,0.0000000000,0.0000000000,0.0000000000,181901,0.0000000000,1.0000000000,0.6748089194,0.6861981153
1508264373141,130141,RC,0,40.1021787433,-88.2267358693,0,22.2465566017,-0.0000000062,22.2465566017,22.2606468184,9.9127126579,0.6719548702,-0.0240709993,22.2465566017,9.9278507171,0.6866997234,-1.4331570221,0.0000000000,0.0000000000,1500,1000,40.1022678905,-88.2269975973,-0.1142463440,0.0552687596,0.0000000000,0.0000000000,0.0000000000,0.0000000000,181901,0.0000000000,1.0000000000,0.6918857694,0.6520240307
1508264373342,130342,RC,0,40.1021787433,-88.2267358693,0,22.2682333679,-0.0000000002,22.2682333679,22.2855957381,9.8060952564,0.6619828939,-0.0359246938,22.2682333679,9.7971029280,0.6896543323,-1.4338626053,0.0000000000,0.0000000000,1500,1000,40.1022669317,-88.2269978907,0.0288706547,0.1068286946,0.0000000000,0.0000000000,0.0000000000,0.0000000000,181901,0.0000000000,1.0000000000,0.6520175338,0.6719481945
1508264373542,130542,RC,0,40.1021787433,-88.2267358693,0,22.2913569161,-0.0000004578,22.2913569161,22.3024647015,9.6720497717,0.7004275918,-0.0915570637,22.2913569161,9.6673436355,0.6877217043,-1.4323628210,0.0000000000,0.0000000000,1500,1000,40.1022657262,-88.2269980890,0.2844886681,0.0039997129,0.0000000000,0.0000000000,0.0000000000,0.0000000000,181901,0.0000000000,1.0000000000,0.7061221004,0.6947330832
1508264373743,130743,RC,0,40.1021787433,-88.2267358693,0,22.3123590203,-0.0000001459,22.3123590203,22.3188233177,9.5595019739,0.6178568602,-0.1415898356,22.3123590203,9.5417831870,0.6890780552,-1.4381265020,0.0000000000,0.0000000000,1500,1000,40.1022647140,-88.2269982813,-0.3883357586,-0.0138899120,0.0000000000,0.0000000000,0.0000000000,0.0000000000,181901,0.0000000000,1.0000000000,0.5751478672,0.6605658531
1508264373943,130943,RC,0,40.1021787433,-88.2267358693,0,22.3341125884,0.0000000428,22.3341125884,22.3426949679,9.4101857197,0.6847676039,0.0559959802,22.3341125884,9.4098177384,0.6830732826,-1.4476136082,0.0000000000,0.0000000000,1500,1000,40.1022633712,-88.2269985620,0.0565777566,0.1396263402,0.0000000000,0.0000000000,0.0000000000,0.0000000000,181902,0.0000000000,1.0000000000,0.6263986826,0.7431365848
1508264374144,131144,RC,0,40.1021787433,-88.2267358693,0,22.3542258603,0.0000002647,22.3542258603,22.3604002355,9.3082199718,0.6705380082,-0.0543960950,22.3542258603,9.2838833595,0.6851741697,-1.4369543067,0.0000000000,0.0000000000,1500,1000,40.1022624542,-88.2269987702,-0.0807214779,-0.0207985069,0.0000000000,0.0000000000,0.0000000000,0.0000000000,181902,0.0000000000,1.0000000000,0.6719616652,0.6691143513
1508264374344,131344,RC,0,40.1021787433,-88.2267358693,0,22.3779310833,0.0000001496,22.3779310833,22.3874046535,9.1613314733,0.6990318894,-0.1535162521,22.3779310833,9.1555081910,0.6841310393,-1.4354440737,0.0000000000,0.0000000000,1500,1000,40.1022611332,-88.2269990877,0.2564906780,-0.2100212867,0.0000000000,0.0000000000,0.0000000000,0.0000000000,181902,0.0000000000,1.0000000000,0.6947607994,0.7033029795
1508264374545,131545,RC,0,40.1021787433,-88.2267358693,0,22.3992099317,-0.0000002233,22.3992099317,22.4046280037,9.0277122370,0.6561965942,-0.0258163285,22.3992099317,9.0248067531,0.6863937679,-1.4458480214,0.0000000000,0.0000000000,1500,1000,40.1022599315,-88.2269992902,-0.0549778714,0.0463966693,0.0000000000,0.0000000000,0.0000000000,0.0000000000,181902,0.0000000000,1.0000000000,0.6376921535,0.6747010946
1508264374745,131745,RC,0,40.1021787433,-88.2267358693,0,22.4256978551,0.0000000200,22.4256978551,22.4540012111,8.9132741247,0.6676973701,0.1606430132,22.4256978551,8.9009180269,0.6865999948,-1.4375347169,0.0000000000,0.0000000000,1500,1000,40.1022589023,-88.2269998707,0.0332339778,0.0211621172,0.0000000000,0.0000000000,0.0000000000,0.0000000000,181902,0.0000000000,1.0000000000,0.7346094847,0.6007852554
1508264374946,131946,RC,0,40.1021787433,-88.2267358693,0,22.4532561901,-0.0000000256,22.4532561901,22.4740029422,8.7821938388,0.6975733638,-0.0115628063,22.4532561901,8.7746448260,0.6839006278,-1.4123148720,0.0000000000,0.0000000000,1500,1000,40.1022577235,-88.2270001058,0.0071994832,0.0637045177,0.0000000000,0.0000000000,0.0000000000,0.0000000000,181903,0.0000000000,1.0000000000,0.6691009998,0.7260457277
1508264375146,132146,RC,0,40.1021787433,-88.2267358693,0,22.4761378347,-0.0000002131,22.4761378347,22.4770650159,8.6617697332,0.6890522838,0.0208712290,22.4761378347,8.6496894612,0.6843406280,-1.4107642295,0.0000000000,0.0000000000,1500,1000,40.1022566405,-88.2270001418,0.1471167115,0.1998401994,0.0000000000,0.0000000000,0.0000000000,0.0000000000,181903,0.0000000000,1.0000000000,0.6150218844,0.7630826831
1508264375347,132347,RC,0,40.1021787433,-88.2267358693,0,22.4995639753,0.0000003317,22.4995639753,22.5032330932,8.5104149059,0.6975733042,-0.0048723775,22.4995639753,8.5197022894,0.6859686706,-1.4058168394,0.0000000000,0.0000000000,1500,1000,40.1022552793,-88.2270004495,0.1305360836,-0.0805033117,0.0000000000,0.0000000000,0.0000000000,0.0000000000,181903,0.0000000000,1.0000000000,0.7231984735,0.6719481945
1508264375547,132547,RC,0,40.1021787433,-88.2267358693,0,22.5238394143,-0.0000002179,22.5238394143,22.5296562832,8.3891568381,0.7132474184,-0.0607956356,22.5238394143,8.3919828143,0.6869303236,-1.4032259562,0.0000000000,0.0000000000,1500,1000,40.1022541888,-88.2270007602,0.1247910415,-0.0975929940,0.0000000000,0.0000000000,0.0000000000,0.0000000000,181903,0.0000000000,1.0000000000,0.7317548394,0.6947399974
1508264375748,132748,RC,0,40.1021787433,-88.2267358693,0,22.5411469169,-0.0000004349,22.5411469169,22.5284657266,8.2689921870,0.6876080036,0.0459603370,22.5411469169,8.2661185684,0.6857949478,-1.4115167015,0.0000000000,0.0000000000,1500,1000,40.1022531082,-88.2270007462,-0.2383101649,0.0857392995,0.0000000000,0.0000000000,0.0000000000,0.0000000000,181903,0.0000000000,1.0000000000,0.6833371520,0.6918788552
1508264375948,132948,RC,0,40.1021787433,-88.2267358693,0,22.5647856200,-0.0000003399,22.5647856200,22.5710914687,8.1285529953,0.7018651962,-0.0266889931,22.5647856200,8.1358171879,0.6862018725,-1.4048185222,0.0000000000,0.0000000000,1500,1000,40.1022518452,-88.2270012473,0.4113159271,-0.1012290966,0.0000000000,0.0000000000,0.0000000000,0.0000000000,181904,0.0000000000,1.0000000000,0.7118308544,0.6918995976
1508264376149,133149,RC,0,40.1021787433,-88.2267358693,0,22.5867288630,0.0000000998,22.5867288630,22.5825737622,8.0000301924,0.6221339703,-0.1234820446,22.5867288630,8.0069914862,0.6821906498,-1.4056871792,0.0000000000,0.0000000000,1500,1000,40.1022506893,-88.2270013823,-0.9282242739,0.1950405439,0.0000000000,0.0000000000,0.0000000000,0.0000000000,181904,0.0000000000,1.0000000000,0.5751535892,0.6691143513
1508264376349,133349,RC,0,40.1021787433,-88.2267358693,0,22.6058849362,0.0000001981,22.6058849362,22.5960405945,7.8866854968,0.6587473750,-0.0549778714,22.6058849362,7.8779642179,0.6861105771,-1.4171045407,0.0000000000,0.0000000000,1500,1000,40.1022496700,-88.2270015407,0.1186823891,0.0020362175,0.0000000000,0.0000000000,0.0000000000,0.0000000000,181904,0.0000000000,1.0000000000,0.6061044931,0.7113902569
1508264376550,133550,RC,0,40.1021787433,-88.2267358693,0,22.6293113080,0.0000001313,22.6293113080,22.6383828626,7.7247671515,0.6976011992,-0.1596249045,22.6293113080,7.7436052682,0.6832229601,-1.4188686409,0.0000000000,0.0000000000,1500,1000,40.1022482138,-88.2270020385,0.5282529869,-0.2964150846,0.0000000000,0.0000000000,0.0000000000,0.0000000000,181904,0.0000000000,1.0000000000,0.7317694426,0.6634330153
1508264376750,133750,RC,0,40.1021787433,-88.2267358693,0,22.6507758580,0.0000001905,22.6507758580,22.6569528201,7.6326050898,0.6406413913,0.0064722626,22.6507758580,7.6167814253,0.6881706601,-1.4301003891,0.0000000000,0.0000000000,1500,1000,40.1022473850,-88.2270022568,-0.2585996175,0.1370810683,0.0000000000,0.0000000000,0.0000000000,0.0000000000,181904,0.0000000000,1.0000000000,0.7089764476,0.5723063350
1508264376951,133951,RC,0,40.1021787433,-88.2267358693,0,22.6729946594,0.0000001655,22.6729946594,22.6871467120,7.4890153743,0.6719683409,-0.1081376916,22.6729946594,7.4885946975,0.6857932555,-1.4262977365,0.0000000000,0.0000000000,1500,1000,40.1022460937,-88.2270026118,0.1141008998,-0.1943860454,0.0000000000,0.0000000000,0.0000000000,0.0000000000,181905,0.0000000000,1.0000000000,0.6292585135,0.7146782279
1508264377151,134151,RC,0,40.1021787433,-88.2267358693,0,22.6932863102,0.0000001721,22.6932863102,22.7003016614,7.3925352431,0.6634329557,0.0162897397,22.6932863102,7.3651205830,0.6880462272,-1.4333361607,0.0000000000,0.0000000000,1500,1000,40.1022452260,-88.2270027665,0.0219620598,-0.0430514549,0.0000000000,0.0000000000,0.0000000000,0.0000000000,181905,0.0000000000,1.0000000000,0.6435015202,0.6833644509
1508264377352,134352,RC,0,40.1021787433,-88.2267358693,0,22.7198331704,0.0000001149,22.7198331704,22.7516027843,7.2458135370,0.6589841843,0.1511164244,22.7198331704,7.2403231816,0.6834142806,-1.4242532642,0.0000000000,0.0000000000,1500,1000,40.1022439065,-88.2270033697,-0.1272635913,0.0714130552,0.0000000000,0.0000000000,0.0000000000,0.0000000000,181905,0.0000000000,1.0000000000,0.6774870157,0.6404814124
1508264377552,134552,RC,0,40.1021787433,-88.2267358693,0,22.7507688460,-0.0000001325,22.7507688460,22.7874667856,7.1470539100,0.6734256744,-0.0477783883,22.7507688460,7.1200193034,0.6844054970,-1.4020461152,0.0000000000,0.0000000000,1500,1000,40.1022430183,-88.2270037913,0.0773035415,-0.0568686448,0.0000000000,0.0000000000,0.0000000000,0.0000000000,181905,0.0000000000,1.0000000000,0.6691544652,0.6776968241
1508264377753,134753,RC,0,40.1021787433,-88.2267358693,0,22.7783829687,-0.0000001868,22.7783829687,22.7981694629,6.9993314499,0.6933232546,0.0973021058,22.7783829687,6.9943216363,0.6800789063,-1.4018402025,0.0000000000,0.0000000000,1500,1000,40.1022416898,-88.2270039172,0.0706858347,-0.0303978178,0.0000000000,0.0000000000,0.0000000000,0.0000000000,181905,0.0000000000,1.0000000000,0.7004415989,0.6862049699
1508264377953,134953,RC,0,40.1021787433,-88.2267358693,0,22.8108469820,0.0000000440,22.8108469820,22.8300360067,6.8903604216,0.6776156425,-0.0454512826,22.8108469820,6.8736772977,0.6834547954,-1.3821836127,0.0000000000,0.0000000000,1500,1000,40.1022407098,-88.2270042918,-0.0310523163,0.1343903524,0.0000000000,0.0000000000,0.0000000000,0.0000000000,181906,0.0000000000,1.0000000000,0.6747685075,0.6804627180
1508264378154,135154,RC,0,40.1021787433,-88.2267358693,0,22.8425982230,-0.0000000783,22.8425982230,22.8516821443,6.7268482828,0.7359743118,-0.0527962099,22.8425982230,6.7445959262,0.6817434624,-1.3774834106,0.0000000000,0.0000000000,1500,1000,40.1022392393,-88.2270045463,0.3527746751,-0.0453785606,0.0000000000,0.0000000000,0.0000000000,0.0000000000,181906,0.0000000000,1.0000000000,0.7373978496,0.7345507741
1508264378354,135354,RC,0,40.1021787433,-88.2267358693,0,22.8726916727,-0.0000001405,22.8726916727,22.8804867789,6.6291820712,0.6292207837,-0.0698131701,22.8726916727,6.6231235053,0.6801018340,-1.3733058554,0.0000000000,0.0000000000,1500,1000,40.1022383610,-88.2270048850,-0.2572178985,0.0499600498,0.0000000000,0.0000000000,0.0000000000,0.0000000000,181906,0.0000000000,1.0000000000,0.5779720545,0.6804695129
1508264378555,135555,RC,0,40.1021787433,-88.2267358693,0,22.9007378546,-0.0000000673,22.9007378546,22.8987733310,6.4711184832,0.6719750762,0.0042906011,22.9007378546,6.4917649550,0.6777821501,-1.3736288972,0.0000000000,0.0000000000,1500,1000,40.1022369395,-88.2270051000,0.2508183579,0.0210166731,0.0000000000,0.0000000000,0.0000000000,0.0000000000,181906,0.0000000000,1.0000000000,0.6890591979,0.6548909545
1508264378755,135755,RC,0,40.1021787433,-88.2267358693,0,22.9312744139,-0.0000001036,22.9312744139,22.9354027962,6.3814953719,0.6459487677,-0.1061014741,22.9312744139,6.3693741716,0.6761492646,-1.3661383641,0.0000000000,0.0000000000,1500,1000,40.1022361335,-88.2270055307,-0.1591885722,-0.0661043454,0.0000000000,0.0000000000,0.0000000000,0.0000000000,181906,0.0000000000,1.0000000000,0.6118016839,0.6800958514
1508264378956,135956,RC,0,40.1021787433,-88.2267358693,0,22.9553399995,-0.0000001715,22.9553399995,22.9459353638,6.2368122403,0.6904621720,-0.0407970713,22.9553399995,6.2435200883,0.6740107883,-1.3727815837,0.0000000000,0.0000000000,1500,1000,40.1022348323,-88.2270056545,-0.0294524311,-0.0916297857,0.0000000000,0.0000000000,0.0000000000,0.0000000000,181907,0.0000000000,1.0000000000,0.6861912608,0.6947330832
1508264379156,136156,RC,0,40.1021787433,-88.2267358693,0,22.9827941153,-0.0000000396,22.9827941153,22.9819553252,6.1206876716,0.6333017349,0.1027562597,22.9827941153,6.1182655893,0.6720776448,-1.3714976572,0.0000000000,0.0000000000,1500,1000,40.1022337880,-88.2270060780,-0.2520546328,0.0858847436,0.0000000000,0.0000000000,0.0000000000,0.0000000000,181907,0.0000000000,1.0000000000,0.6176470518,0.6489563584
1508264379357,136357,RC,0,40.1021787433,-88.2267358693,0,23.0136407021,0.0000000893,23.0136407021,23.0281958128,5.9808415194,0.6918927431,-0.0237073890,23.0136407021,5.9894271790,0.6729427668,-1.3619502778,0.0000000000,0.0000000000,1500,1000,40.1022325303,-88.2270066217,0.4541492158,-0.0010908308,0.0000000000,0.0000000000,0.0000000000,0.0000000000,181907,0.0000000000,1.0000000000,0.7032818794,0.6805035472
1508264379557,136557,RC,0,40.1021787433,-88.2267358693,0,23.0423360103,0.0000000421,23.0423360103,23.0530171733,5.8697763203,0.6449058652,-0.0558505361,23.0423360103,5.8658309404,0.6667281916,-1.3620039208,0.0000000000,0.0000000000,1500,1000,40.1022315315,-88.2270069135,-0.3286309537,0.0324340353,0.0000000000,0.0000000000,0.0000000000,0.0000000000,181907,0.0000000000,1.0000000000,0.6520240307,0.6377876997
1508264379758,136758,RC,0,40.1021787433,-88.2267358693,0,23.0719017674,-0.0000000077,23.0719017674,23.0794687263,5.7458310422,0.6306758523,-0.0288706547,23.0719017674,5.7379403038,0.6696585227,-1.3630678591,0.0000000000,0.0000000000,1500,1000,40.1022304168,-88.2270072245,-0.0782489281,0.0053814319,0.0000000000,0.0000000000,0.0000000000,0.0000000000,181907,0.0000000000,1.0000000000,0.5666117072,0.6947399974
1508264379958,136958,RC,0,40.1021787433,-88.2267358693,0,23.0987986150,0.0000001964,23.0987986150,23.1005478158,5.6055771741,0.6861912608,-0.0442877298,23.0987986150,5.6104652462,0.6647414145,-1.3645699192,0.0000000000,0.0000000000,1500,1000,40.1022291555,-88.2270074723,0.2687807048,0.0745401035,0.0000000000,0.0000000000,0.0000000000,0.0000000000,181908,0.0000000000,1.0000000000,0.6605658531,0.7118166685
1508264380159,137159,RC,0,40.1021787433,-88.2267358693,0,23.1280384406,0.0000000818,23.1280384406,23.1378718885,5.5097642127,0.6178753972,0.1484984305,23.1280384406,5.4875236375,0.6664715606,-1.3644626614,0.0000000000,0.0000000000,1500,1000,40.1022282938,-88.2270079112,-0.0533779863,0.0979566043,0.0000000000,0.0000000000,0.0000000000,0.0000000000,181908,0.0000000000,1.0000000000,0.6577383280,0.5780124664
1508264380359,137359,RC,0,40.1021787433,-88.2267358693,0,23.1566379885,0.0000001074,23.1566379885,23.1683918049,5.3794252262,0.6662537456,-0.0527962099,23.1566379885,5.3668609740,0.6642883326,-1.3551188341,0.0000000000,0.0000000000,1500,1000,40.1022271217,-88.2270082700,0.0917025078,-0.2174389360,0.0000000000,0.0000000000,0.0000000000,0.0000000000,181908,0.0000000000,1.0000000000,0.6377813816,0.6947261095
1508264380560,137560,RC,0,40.1021787433,-88.2267358693,0,23.1843436134,0.0000000441,23.1843436134,23.1808521666,5.2801837537,0.6434950829,0.0421787903,23.1843436134,5.2495842421,0.6642231308,-1.3558983359,0.0000000000,0.0000000000,1500,1000,40.1022262292,-88.2270084165,-0.3455751919,0.0845757467,0.0000000000,0.0000000000,0.0000000000,0.0000000000,181908,0.0000000000,1.0000000000,0.6207165122,0.6662737131
1508264380760,137760,RC,0,40.1021787433,-88.2267358693,0,23.2183589532,0.0000000739,23.2183589532,23.2315437087,5.1651711344,0.6207041144,0.0644317382,23.2183589532,5.1370816970,0.6616343802,-1.3442184871,0.0000000000,0.0000000000,1500,1000,40.1022251948,-88.2270090125,-0.0744673814,0.0832667497,0.0000000000,0.0000000000,0.0000000000,0.0000000000,181908,0.0000000000,1.0000000000,0.6520240307,0.5893841982
1508264380961,137961,RC,0,40.1021787433,-88.2267358693,0,23.2574641450,-0.0000002190,23.2574641450,23.2889544398,5.0297542472,0.6888458133,0.0709767229,23.2574641450,5.0191900924,0.6608107645,-1.3312666597,0.0000000000,0.0000000000,1500,1000,40.1022239770,-88.2270096875,0.2514728564,-0.1327177452,0.0000000000,0.0000000000,0.0000000000,0.0000000000,181909,0.0000000000,1.0000000000,0.6859993339,0.6916922927
1508264381161,138161,RC,0,40.1021787433,-88.2267358693,0,23.2925746507,-0.0000000695,23.2925746507,23.3002665977,4.9266024197,0.6204561591,-0.0455240047,23.2925746507,4.9075173636,0.6582162655,-1.3198296866,0.0000000000,0.0000000000,1500,1000,40.1022230493,-88.2270098205,-0.0850120790,0.0119264166,0.0000000000,0.0000000000,0.0000000000,0.0000000000,181909,0.0000000000,1.0000000000,0.5777642131,0.6631481051
1508264381361,138361,RC,0,40.1021787433,-88.2267358693,0,23.3317160495,-0.0000001146,23.3317160495,23.3529143962,4.7833462897,0.7089906335,0.0645044603,23.3317160495,4.7862047003,0.6597233580,-1.3144566833,0.0000000000,0.0000000000,1500,1000,40.1022217610,-88.2270104395,0.2455823702,-0.0739583271,0.0000000000,0.0000000000,0.0000000000,0.0000000000,181909,0.0000000000,1.0000000000,0.7232273817,0.6947538853
1508264381562,138562,RC,0,40.1021787433,-88.2267358693,0,23.3710682994,0.0000001838,23.3710682994,23.3876727260,4.6829743353,0.6719750166,0.1634791733,23.3710682994,4.6723915984,0.6598206866,-1.3021200239,0.0000000000,0.0000000000,1500,1000,40.1022208583,-88.2270108482,-0.0942477796,0.2247111412,0.0000000000,0.0000000000,0.0000000000,0.0000000000,181909,0.0000000000,1.0000000000,0.7089906335,0.6349594593
1508264381762,138762,RC,0,40.1021787433,-88.2267358693,0,23.4129292723,0.0000002341,23.4129292723,23.4356709741,4.5440548074,0.7075669765,-0.1076286372,23.4129292723,4.5505645232,0.6588586002,-1.2870734205,0.0000000000,0.0000000000,1500,1000,40.1022196090,-88.2270114125,0.1944587675,-0.2164208272,0.0000000000,0.0000000000,0.0000000000,0.0000000000,181909,0.0000000000,1.0000000000,0.6947538853,0.7203800678
1508264381963,138963,RC,0,40.1021787433,-88.2267358693,0,23.4533833576,-0.0000000163,23.4533833576,23.4624627231,4.4338977002,0.6379215717,0.1041379787,23.4533833576,4.4345030622,0.6584401556,-1.2841314660,0.0000000000,0.0000000000,1500,1000,40.1022186183,-88.2270117275,-0.4812018192,0.1916226075,0.0000000000,0.0000000000,0.0000000000,0.0000000000,181910,0.0000000000,1.0000000000,0.6151386499,0.6607044935
1508264382163,139163,RC,0,40.1021787433,-88.2267358693,0,23.4957224862,-0.0000001059,23.4957224862,23.5167548501,4.3064497815,0.6748089194,0.0311250383,23.4957224862,4.3143929376,0.6603515879,-1.2735404873,0.0000000000,0.0000000000,1500,1000,40.1022174722,-88.2270123658,0.3548836146,-0.1421716120,0.0000000000,0.0000000000,0.0000000000,0.0000000000,181910,0.0000000000,1.0000000000,0.6947399974,0.6548778415
1508264382364,139364,RC,0,40.1021787433,-88.2267358693,0,23.5361819123,-0.0000001906,23.5361819123,23.5438159066,4.2140282645,0.6192866564,0.0788307045,23.5361819123,4.2013371469,0.6565834630,-1.2656115057,0.0000000000,0.0000000000,1500,1000,40.1022166410,-88.2270126840,0.0194895100,0.2025309153,0.0000000000,0.0000000000,0.0000000000,0.0000000000,181910,0.0000000000,1.0000000000,0.6320995092,0.6064738631
1508264382564,139564,RC,0,40.1021787433,-88.2267358693,0,23.5756116018,-0.0000000210,23.5756116018,23.5683537578,4.1067992909,0.5851366520,0.0032724923,23.5756116018,4.0882539539,0.6588479382,-1.2562207458,0.0000000000,0.0000000000,1500,1000,40.1022156767,-88.2270129725,-0.5899212872,0.0092357006,0.0000000000,0.0000000000,0.0000000000,0.0000000000,181910,0.0000000000,1.0000000000,0.6634396315,0.5068337321
1508264382765,139765,RC,0,40.1021787433,-88.2267358693,0,23.6193853959,0.0000000676,23.6193853959,23.6276498578,3.9527201875,0.7032116652,-0.0589775843,23.6193853959,3.9678774556,0.6536367945,-1.2501330083,0.0000000000,0.0000000000,1500,1000,40.1022142910,-88.2270136697,0.7753625202,-0.0888663477,0.0000000000,0.0000000000,0.0000000000,0.0000000000,181910,0.0000000000,1.0000000000,0.6775885224,0.7288347483
1508264382965,139965,RC,0,40.1021787433,-88.2267358693,0,23.6559027947,0.0000001159,23.6559027947,23.6376720250,3.8687680179,0.5438496470,0.0106901417,23.6559027947,3.8545235362,0.6519581642,-1.2525492171,0.0000000000,0.0000000000,1500,1000,40.1022135360,-88.2270137875,-0.8058330601,0.2044216886,0.0000000000,0.0000000000,0.0000000000,0.0000000000,181911,0.0000000000,1.0000000000,0.5210705996,0.5666286945
1508264383166,140166,RC,0,40.1021787433,-88.2267358693,0,23.6993431012,0.0000000601,23.6993431012,23.7130005678,3.7029949145,0.7474224567,0.1207186066,23.6993431012,3.7275546198,0.6499733744,-1.2507681745,0.0000000000,0.0000000000,1500,1000,40.1022120452,-88.2270146732,0.6382087298,-0.2900155440,0.0000000000,0.0000000000,0.0000000000,0.0000000000,181911,0.0000000000,1.0000000000,0.7687773705,0.7260674834
1508264383366,140366,RC,0,40.1021787433,-88.2267358693,0,23.7373467920,0.0000000824,23.7373467920,23.7263255962,3.6286240416,0.6192928553,0.0173078484,23.7373467920,3.6132174362,0.6480709160,-1.2435149749,0.0000000000,0.0000000000,1500,1000,40.1022113763,-88.2270148298,-0.4324780442,0.0217438936,0.0000000000,0.0000000000,0.0000000000,0.0000000000,181911,0.0000000000,1.0000000000,0.5922433138,0.6463424563
1508264383567,140567,RC,0,40.1021787433,-88.2267358693,0,23.7758300888,0.0000001013,23.7758300888,23.7675905178,3.4899639683,0.6705580950,0.0402152948,23.7758300888,3.4927748263,0.6508605776,-1.2445851607,0.0000000000,0.0000000000,1500,1000,40.1022101293,-88.2270153150,0.2091486220,-0.1386082314,0.0000000000,0.0000000000,0.0000000000,0.0000000000,181911,0.0000000000,1.0000000000,0.6776765585,0.6634396315
1508264383768,140768,RC,0,40.1021787433,-88.2267358693,0,23.8129743773,0.0000000870,23.8129743773,23.8128245156,3.3820863568,0.6034456491,0.0725766081,23.8129743773,3.3769789612,0.6506592424,-1.2456294857,0.0000000000,0.0000000000,1500,1000,40.1022091592,-88.2270158468,-0.6785694688,0.1379537330,0.0000000000,0.0000000000,0.0000000000,0.0000000000,181911,0.0000000000,1.0000000000,0.6376029849,0.5692883730
1508264383969,140969,RC,0,40.1021787433,-88.2267358693,0,23.8560440962,-0.0000000939,23.8560440962,23.8729568777,3.2877003956,0.6506264210,-0.0910480093,23.8560440962,3.2670051113,0.6536284612,-1.2380556724,0.0000000000,0.0000000000,1500,1000,40.1022083103,-88.2270165538,0.1165007276,-0.1580977414,0.0000000000,0.0000000000,0.0000000000,0.0000000000,181912,0.0000000000,1.0000000000,0.6862186790,0.6150341630
1508264384169,141169,RC,0,40.1021787433,-88.2267358693,0,23.9015147549,-0.0000000662,23.9015147549,23.9145053057,3.1514680780,0.6506199241,0.1391900078,23.9015147549,3.1508766943,0.6533234941,-1.2374772202,0.0000000000,0.0000000000,1500,1000,40.1022070852,-88.2270170423,0.3184498664,0.1799870791,0.0000000000,0.0000000000,0.0000000000,0.0000000000,181912,0.0000000000,1.0000000000,0.6378068328,0.6634330153
1508264384370,141370,RC,0,40.1021787433,-88.2267358693,0,23.9459628807,-0.0000000564,23.9459628807,23.9629571230,3.0475749519,0.6463230848,-0.1026835377,23.9459628807,3.0392484101,0.6548143209,-1.2264458263,0.0000000000,0.0000000000,1500,1000,40.1022061508,-88.2270176120,-0.1436260530,-0.0250163859,0.0000000000,0.0000000000,0.0000000000,0.0000000000,181912,0.0000000000,1.0000000000,0.6320868731,0.6605592370
1508264384570,141570,RC,0,40.1021787433,-88.2267358693,0,23.9946950102,-0.0000000359,23.9946950102,24.0178871670,2.9120283366,0.6634064913,0.0653044028,23.9946950102,2.9205665229,0.6566477948,-1.2261915349,0.0000000000,0.0000000000,1500,1000,40.1022049318,-88.2270182578,-0.0199985643,-0.1111192957,0.0000000000,0.0000000000,0.0000000000,0.0000000000,181912,0.0000000000,1.0000000000,0.6861844063,0.6406285763
1508264384771,141771,RC,0,40.1021787433,-88.2267358693,0,24.0407906776,0.0000000869,24.0407906776,24.0523761800,2.8063004943,0.6320742369,0.1474803218,24.0407906776,2.8063782130,0.6514023103,-1.2184009443,0.0000000000,0.0000000000,1500,1000,40.1022039810,-88.2270186633,0.0502509380,0.0162897397,0.0000000000,0.0000000000,0.0000000000,0.0000000000,181912,0.0000000000,1.0000000000,0.6406157613,0.6235327125
1508264384971,141971,RC,0,40.1021787433,-88.2267358693,0,24.0930539099,-0.0000000273,24.0930539099,24.1152869666,2.6907874977,0.6306380630,-0.1458077146,24.0930539099,2.6898708070,0.6537741087,-1.2011965311,0.0000000000,0.0000000000,1500,1000,40.1022029422,-88.2270194030,-0.1468985454,-0.1543161947,0.0000000000,0.0000000000,0.0000000000,0.0000000000,181913,0.0000000000,1.0000000000,0.5637306571,0.6975454688
1508264385172,142172,RC,0,40.1021787433,-88.2267358693,0,24.1416316288,-0.0000000877,24.1416316288,24.1497759790,2.5868573057,0.6363195777,0.1302451954,24.1416316288,2.5769166070,0.6532535752,-1.2044917144,0.0000000000,0.0000000000,1500,1000,40.1022020075,-88.2270198085,-0.0172351264,0.2436915968,0.0000000000,0.0000000000,0.0000000000,0.0000000000,181913,0.0000000000,1.0000000000,0.6348960400,0.6377431154
1508264385372,142372,RC,0,40.1021787433,-88.2267358693,0,24.1912961741,-0.0000000914,24.1912961741,24.1937625491,2.4739017920,0.6648566723,-0.0038542688,24.1912961741,2.4629923383,0.6495679716,-1.1907811226,0.0000000000,0.0000000000,1500,1000,40.1022009917,-88.2270203257,0.2540181282,-0.3075415586,0.0000000000,0.0000000000,0.0000000000,0.0000000000,181913,0.0000000000,1.0000000000,0.6691277027,0.6605856419
1508264385573,142573,RC,0,40.1021787433,-88.2267358693,0,24.2469946522,0.0000000094,24.2469946522,24.2693887132,2.3552568055,0.6447255611,0.0874846288,24.2469946522,2.3506748771,0.6515062034,-1.1801342880,0.0000000000,0.0000000000,1500,1000,40.1021999247,-88.2270212148,-0.4177881897,-0.0159988515,0.0000000000,0.0000000000,0.0000000000,0.0000000000,181913,0.0000000000,1.0000000000,0.6689205170,0.6205305457
1508264385773,142773,RC,0,40.1021787433,-88.2267358693,0,24.2966621910,0.0000000994,24.2966621910,24.2982359373,2.2289208362,0.6947052479,0.0059632083,24.2966621910,2.2375143568,0.6509147138,-1.1707085893,0.0000000000,0.0000000000,1500,1000,40.1021987885,-88.2270215540,0.2608540011,-0.0050178216,0.0000000000,0.0000000000,0.0000000000,0.0000000000,181913,0.0000000000,1.0000000000,0.6918581128,0.6975524426
1508264385974,142974,RC,0,40.1021787433,-88.2267358693,0,24.3542661706,0.0000000526,24.3542661706,24.3726429866,2.1289010007,0.6591224670,-0.0322158691,24.3542661706,2.1234918166,0.6579287508,-1.1611213340,0.0000000000,0.0000000000,1500,1000,40.1021978890,-88.2270224288,-0.0549778714,0.0392699082,0.0000000000,0.0000000000,0.0000000000,0.0000000000,181914,0.0000000000,1.0000000000,0.6036024094,0.7146425247
1508264386174,143174,RC,0,40.1021787433,-88.2267358693,0,24.4122769287,-0.0000000278,24.4122769287,24.4413515846,1.9818271771,0.6470679045,0.1514073126,24.4122769287,2.0059134682,0.6574870887,-1.1573021653,0.0000000000,0.0000000000,1500,1000,40.1021965663,-88.2270232367,-0.2721986413,0.0727220522,0.0000000000,0.0000000000,0.0000000000,0.0000000000,181914,0.0000000000,1.0000000000,0.7167521715,0.5773836970
1508264386375,143375,RC,0,40.1021787433,-88.2267358693,0,24.4715006967,-0.0000000083,24.4715006967,24.4823612904,1.8857176960,0.6683731079,-0.0375245789,24.4715006967,1.8872630513,0.6604356297,-1.1400244987,0.0000000000,0.0000000000,1500,1000,40.1021957020,-88.2270237188,-0.1732966503,-0.0814486984,0.0000000000,0.0000000000,0.0000000000,0.0000000000,181914,0.0000000000,1.0000000000,0.6513082981,0.6854379773
1508264386575,143575,RC,0,40.1021787433,-88.2267358693,0,24.5273168308,0.0000000276,24.5273168308,24.5328543892,1.7753196666,0.6876149178,0.0378154671,24.5273168308,1.7742338457,0.6609468147,-1.1383120523,0.0000000000,0.0000000000,1500,1000,40.1021947092,-88.2270243125,0.0701040583,0.3838997134,0.0000000000,0.0000000000,0.0000000000,0.0000000000,181914,0.0000000000,1.0000000000,0.6491767764,0.7260529995
1508264386776,143776,RC,0,40.1021787433,-88.2267358693,0,24.5821728476,-0.0000000249,24.5821728476,24.5854171324,1.6460740962,0.6705111861,-0.0125081930,24.5821728476,1.6554296960,0.6598431091,-1.1357805988,0.0000000000,0.0000000000,1500,1000,40.1021935468,-88.2270249305,-0.1287907544,-0.0207257849,0.0000000000,0.0000000000,0.0000000000,0.0000000000,181914,0.0000000000,1.0000000000,0.7089481354,0.6320742369
1508264386976,143976,RC,0,40.1021787433,-88.2267358693,0,24.6401298464,0.0000000323,24.6401298464,24.6543524854,1.5342120001,0.6762123108,0.0813032543,24.6401298464,1.5378294314,0.6650732716,-1.1342285010,0.0000000000,0.0000000000,1500,1000,40.1021925408,-88.2270257410,-0.2992512447,-0.1706059344,0.0000000000,0.0000000000,0.0000000000,0.0000000000,181915,0.0000000000,1.0000000000,0.6861775517,0.6662470698
1508264387177,144177,RC,0,40.1021787433,-88.2267358693,0,24.6899387839,-0.0000000415,24.6899387839,24.6674366237,1.4075609785,0.6989969611,0.0734492727,24.6899387839,1.4206698718,0.6633954723,-1.1302645590,0.0000000000,0.0000000000,1500,1000,40.1021914018,-88.2270258948,0.3099413863,0.1227548241,0.0000000000,0.0000000000,0.0000000000,0.0000000000,181915,0.0000000000,1.0000000000,0.6434758306,0.7545180917
1508264387378,144378,RC,0,40.1021787433,-88.2267358693,0,24.7413789043,0.0000000414,24.7413789043,24.7270587426,1.2773331874,0.6754834652,-0.0584685299,24.7413789043,1.2981675085,0.6694947866,-1.1294300015,0.0000000000,0.0000000000,1500,1000,40.1021902307,-88.2270265958,0.0455967267,-0.0140353561,0.0000000000,0.0000000000,0.0000000000,0.0000000000,181915,0.0000000000,1.0000000000,0.6228668690,0.7281001210
1508264387578,144578,RC,0,40.1021787433,-88.2267358693,0,24.7978235337,0.0000000338,24.7978235337,24.8041166258,1.1649151169,0.6320995092,0.1036289243,24.7978235337,1.1784413199,0.6666964448,-1.1334601289,0.0000000000,0.0000000000,1500,1000,40.1021892197,-88.2270275018,-0.3870994837,0.0751218799,0.0000000000,0.0000000000,0.0000000000,0.0000000000,181915,0.0000000000,1.0000000000,0.6947399974,0.5694590211
1508264387779,144779,RC,0,40.1021787433,-88.2267358693,0,24.8495270285,0.0000000219,24.8495270285,24.8327228392,1.0601324301,0.7344993949,-0.0208712290,24.8495270285,1.0592906694,0.6662759520,-1.1289287056,0.0000000000,0.0000000000,1500,1000,40.1021882773,-88.2270278382,0.2423098778,-0.1066105285,0.0000000000,0.0000000000,0.0000000000,0.0000000000,181915,0.0000000000,1.0000000000,0.7202649117,0.7487338781
1508264387979,144979,RC,0,40.1021787433,-88.2267358693,0,24.9027684602,0.0000000123,24.9027684602,24.8993192341,0.9569991366,0.7103504539,-0.0541052068,24.9027684602,0.9440658812,0.6713875407,-1.1326602095,0.0000000000,0.0000000000,1500,1000,40.1021873498,-88.2270286212,-0.0715584993,0.0066904288,0.0000000000,0.0000000000,0.0000000000,0.0000000000,181916,0.0000000000,1.0000000000,0.7117739916,0.7089269161
1508264388180,145180,RC,0,40.1021787433,-88.2267358693,0,24.9656074998,-0.0000000007,24.9656074998,24.9923670871,0.8026605779,0.7559945583,0.0610865238,24.9656074998,0.8201633089,0.6754027246,-1.1329322150,0.0000000000,0.0000000000,1500,1000,40.1021859618,-88.2270297152,0.6552256900,-0.0529416540,0.0000000000,0.0000000000,0.0000000000,0.0000000000,181916,0.0000000000,1.0000000000,0.7688080668,0.7431811094
1508264388380,145380,RC,0,40.1021787433,-88.2267358693,0,25.0293009547,0.0000000068,25.0293009547,25.0609055446,0.6843306438,0.6662470698,-0.0739583271,25.0293009547,0.6978859970,0.6750261846,-1.1252190602,0.0000000000,0.0000000000,1500,1000,40.1021848977,-88.2270305210,-0.0360701379,0.1529344757,0.0000000000,0.0000000000,0.0000000000,0.0000000000,181916,0.0000000000,1.0000000000,0.6662470698,0.6662470698
1508264388581,145581,RC,0,40.1021787433,-88.2267358693,0,25.0931205251,0.0000000214,25.0931205251,25.1249220364,0.5667234764,0.6676707268,-0.0356338056,25.0931205251,0.5763632273,0.6822553985,-1.1270798968,0.0000000000,0.0000000000,1500,1000,40.1021838400,-88.2270312737,-0.6248278722,-0.2777255172,0.0000000000,0.0000000000,0.0000000000,0.0000000000,181916,0.0000000000,1.0000000000,0.6292333603,0.7061080337
1508264388781,145781,RC,0,40.1021787433,-88.2267358693,0,25.1511642228,-0.0000000033,25.1511642228,25.1510191803,0.4736718548,0.7075598836,0.0698858921,25.1511642228,0.4609110323,0.6847910242,-1.1266984114,0.0000000000,0.0000000000,1500,1000,40.1021830032,-88.2270315805,-0.0845030246,0.2009310301,0.0000000000,0.0000000000,0.0000000000,0.0000000000,181916,0.0000000000,1.0000000000,0.6036325693,0.8114871979
1508264388982,145982,RC,0,40.1021787433,-88.2267358693,0,25.2089806345,0.0000000041,25.2089806345,25.2175305811,0.3373468743,0.6990039349,0.0421787903,25.2089806345,0.3403439265,0.6857720656,-1.1228777599,0.0000000000,0.0000000000,1500,1000,40.1021817772,-88.2270323625,-0.0663225116,-0.1935861029,0.0000000000,0.0000000000,0.0000000000,0.0000000000,181917,0.0000000000,1.0000000000,0.7431365848,0.6548713446
1508264389182,146182,RC,0,40.1021787433,-88.2267358693,0,25.2793615783,0.0000000023,25.2793615783,25.3215785266,0.2191281349,0.6734054685,0.0473420560,25.2793615783,0.2218948328,0.6879049510,-1.1097472820,0.0000000000,0.0000000000,1500,1000,40.1021807140,-88.2270335858,-0.3460842463,0.0864665200,0.0000000000,0.0000000000,0.0000000000,0.0000000000,181917,0.0000000000,1.0000000000,0.6605922580,0.6862186790
1508264389383,146383,RC,0,40.1021787433,-88.2267358693,0,25.3462339247,-0.0000000099,25.3462339247,25.3564644935,0.0974994177,0.6848223209,-0.0247254977,25.3462339247,0.0999907752,0.6896867919,-1.1004117463,0.0000000000,0.0000000000,1500,1000,40.1021796202,-88.2270339960,-0.0954113324,-0.1276999236,0.0000000000,0.0000000000,0.0000000000,0.0000000000,181917,0.0000000000,1.0000000000,0.6947885752,0.6748561263
1508264389583,146583,RC,0,40.1021787433,-88.2267358693,0,25.4150028172,-0.0000000159,25.4150028172,25.4313677046,-0.0057265394,0.7132545710,-0.1295179749,25.4150028172,-0.0161919734,0.6925902061,-1.0938791377,0.0000000000,0.0000000000,1500,1000,40.1021786918,-88.2270348767,-0.3529928412,0.0391244641,0.0000000000,0.0000000000,0.0000000000,0.0000000000,181917,0.0000000000,1.0000000000,0.6406477690,0.7858613133
1508264389784,146784,RC,0,40.1021787433,-88.2267358693,0,25.4854957251,-0.0000000183,25.4854957251,25.5058457066,-0.1403465303,0.7172174454,0.0064722626,25.4854957251,-0.1353460733,0.6978152860,-1.0953176174,0.0000000000,0.0000000000,1500,1000,40.1021774812,-88.2270357523,0.0378881892,0.0103992535,0.0000000000,0.0000000000,0.0000000000,0.0000000000,181917,0.0000000000,1.0000000000,0.7001408339,0.7342939973
1508264389984,146984,RC,0,40.1021787433,-88.2267358693,0,25.5580589065,-0.0000000019,25.5580589065,25.5820389156,-0.2615860648,0.7502397299,0.0004363323,25.5580589065,-0.2560571451,0.6987666249,-1.0861371025,0.0000000000,0.0000000000,1500,1000,40.1021763908,-88.2270366482,0.6846053991,0.0162170176,0.0000000000,0.0000000000,0.0000000000,0.0000000000,181918,0.0000000000,1.0000000000,0.7829826474,0.7174968719
1508264390185,147185,RC,0,40.1021787433,-88.2267358693,0,25.6387685153,-0.0000000382,25.6387685153,25.6762207532,-0.3763021651,0.6830846667,-0.0627591310,25.6387685153,-0.3749099159,0.6985549507,-1.0705827702,0.0000000000,0.0000000000,1500,1000,40.1021753592,-88.2270377555,-0.1469712674,-0.0810123661,0.0000000000,0.0000000000,0.0000000000,0.0000000000,181918,0.0000000000,1.0000000000,0.7656240463,0.6005452871
1508264390385,147385,RC,0,40.1021787433,-88.2267358693,0,25.7135515868,0.0000000098,25.7135515868,25.7388622256,-0.4878121431,0.7317329049,0.0994837674,25.7135515868,-0.4926577709,0.6978096955,-1.0676800569,0.0000000000,0.0000000000,1500,1000,40.1021743563,-88.2270384920,0.0699586142,-0.0229801685,0.0000000000,0.0000000000,0.0000000000,0.0000000000,181918,0.0000000000,1.0000000000,0.6861775517,0.7772882581
1508264390586,147586,RC,0,40.1021787433,-88.2267358693,0,25.7864381384,0.0000000129,25.7864381384,25.8012627158,-0.5986734846,0.6847608089,0.1385355094,25.7864381384,-0.6100309362,0.6966591914,-1.0543064580,0.0000000000,0.0000000000,1500,1000,40.1021733593,-88.2270392257,0.0872664626,0.1695878257,0.0000000000,0.0000000000,0.0000000000,0.0000000000,181918,0.0000000000,1.0000000000,0.6577120423,0.7118095160
1508264390786,147786,RC,0,40.1021787433,-88.2267358693,0,25.8643711075,0.0000000013,25.8643711075,25.8820345673,-0.7029743259,0.6790663004,0.0285797665,25.8643711075,-0.7234613882,0.6954911419,-1.0335250629,0.0000000000,0.0000000000,1500,1000,40.1021724213,-88.2270401753,-0.0362155820,0.2135119452,0.0000000000,0.0000000000,0.0000000000,0.0000000000,181918,0.0000000000,1.0000000000,0.7032678127,0.6548647881
1508264390987,147987,RC,0,40.1021787433,-88.2267358693,0,25.9378562763,-0.0000000206,25.9378562763,25.9468732218,-0.8061632185,0.6619828939,-0.1314087483,25.9378562763,-0.8320356218,0.6994932478,-1.0254910401,0.0000000000,0.0000000000,1500,1000,40.1021714933,-88.2270409377,-0.3343032738,-0.2371466121,0.0000000000,0.0000000000,0.0000000000,0.0000000000,181919,0.0000000000,1.0000000000,0.6463230848,0.6776427031
1508264391187,148187,RC,0,40.1021787433,-88.2267358693,0,26.0074120572,-0.0000000548,26.0074120572,26.0055597652,-0.9270877008,0.7417203784,0.0055268760,26.0074120572,-0.9400886846,0.6982526567,-1.0313700652,0.0000000000,0.0000000000,1500,1000,40.1021704058,-88.2270416277,0.3508111797,-0.1308269718,0.0000000000,0.0000000000,0.0000000000,0.0000000000,181919,0.0000000000,1.0000000000,0.6776562333,0.8057845235
1508264391388,148388,RC,0,40.1021787433,-88.2267358693,0,26.0829218207,-0.0000000575,26.0829218207,26.0910237526,-1.0652659300,0.6577185392,0.1648608923,26.0829218207,-1.0576683858,0.6973825684,-1.0257106662,0.0000000000,0.0000000000,1500,1000,40.1021691632,-88.2270426325,-0.1702423241,-0.0988292689,0.0000000000,0.0000000000,0.0000000000,0.0000000000,181919,0.0000000000,1.0000000000,0.6776494384,0.6377876997
1508264391588,148588,RC,0,40.1021787433,-88.2267358693,0,26.1667817731,-0.0000000116,26.1667817731,26.1940085110,-1.1579654334,0.7231695652,0.0967930514,26.1667817731,-1.1699503776,0.6990109360,-1.0014254464,0.0000000000,0.0000000000,1500,1000,40.1021683295,-88.2270438433,0.2138028334,-0.1067559726,0.0000000000,0.0000000000,0.0000000000,0.0000000000,181919,0.0000000000,1.0000000000,0.7345581055,0.7117810845
1508264391789,148789,RC,0,40.1021787433,-88.2267358693,0,26.2508579411,-0.0000000044,26.2508579411,26.2653536917,-1.2580779318,0.7018582225,-0.0440695636,26.2508579411,-1.2784042402,0.6988449560,-0.9824254966,0.0000000000,0.0000000000,1500,1000,40.1021674292,-88.2270446822,-0.0781034840,0.1438442192,0.0000000000,0.0000000000,0.0000000000,0.0000000000,181919,0.0000000000,1.0000000000,0.6947399974,0.7089764476
1508264391989,148989,RC,0,40.1021787433,-88.2267358693,0,26.3328860995,0.0000000525,26.3328860995,26.3520650798,-1.3716079524,0.7200994492,-0.0335248660,26.3328860995,-1.3842652511,0.7005577617,-0.9771298336,0.0000000000,0.0000000000,1500,1000,40.1021664082,-88.2270457017,0.1778054175,0.0010181087,0.0000000000,0.0000000000,0.0000000000,0.0000000000,181920,0.0000000000,1.0000000000,0.6745595932,0.7656393647
1508264392190,149190,RC,0,40.1021787433,-88.2267358693,0,26.4186711332,-0.0000000340,26.4186711332,26.4518462080,-1.4740555450,0.7089552283,0.0362883040,26.4186711332,-1.4900467736,0.7010819499,-0.9702153833,0.0000000000,0.0000000000,1500,1000,40.1021654868,-88.2270468748,0.0661043454,-0.0280707121,0.0000000000,0.0000000000,0.0000000000,0.0000000000,181920,0.0000000000,1.0000000000,0.6975663900,0.7203440666
1508264392390,149390,RC,0,40.1021787433,-88.2267358693,0,26.5077189395,0.0000000047,26.5077189395,26.5304492490,-1.5907731538,0.6762123108,0.1509709803,26.5077189395,-1.5974898292,0.7015971544,-0.9546628264,0.0000000000,0.0000000000,1500,1000,40.1021644372,-88.2270477990,-0.3144501536,-0.0762127107,0.0000000000,0.0000000000,0.0000000000,0.0000000000,181920,0.0000000000,1.0000000000,0.6861775517,0.6662470698
1508264392591,149591,RC,0,40.1021787433,-88.2267358693,0,26.5919478852,0.0000000025,26.5919478852,26.6031978063,-1.6919049388,0.7174968719,0.1076286372,26.5919478852,-1.7028435443,0.7017113363,-0.9355117806,0.0000000000,0.0000000000,1500,1000,40.1021635277,-88.2270486543,0.2546726267,-0.0320704250,0.0000000000,0.0000000000,0.0000000000,0.0000000000,181920,0.0000000000,1.0000000000,0.7032607794,0.7317329049
1508264392792,149792,RC,0,40.1021787433,-88.2267358693,0,26.6779689400,-0.0000001254,26.6779689400,26.6900934784,-1.8055276215,0.6876149178,-0.1490802069,26.6779689400,-1.8072370353,0.7004913989,-0.9185550501,0.0000000000,0.0000000000,1500,1000,40.1021625058,-88.2270496760,-0.0584685299,0.1500983157,0.0000000000,0.0000000000,0.0000000000,0.0000000000,181920,0.0000000000,1.0000000000,0.6292459369,0.7459838390
1508264392992,149992,RC,0,40.1021787433,-88.2267358693,0,26.6779689400,-0.0000001254,26.6779689400,26.6900934784,-1.8055276215,0.6719415188,-0.1490802069,26.6779689400,-1.8072370353,0.7004913989,-0.9185550501,0.0000000000,0.0000000000,1500,1000,40.1021625058,-88.2270496760,-0.3193225311,-0.0115628063,0.0000000000,0.0000000000,0.0000000000,0.0000000000,181920,0.0000000000,1.0000000000,0.6918719411,0.6520110369
1508264393193,150193,RC,0,40.1021787433,-88.2267358693,0,26.6779689400,-0.0000001254,26.6779689400,26.6900934784,-1.8055276215,0.7146639228,-0.1490802069,26.6779689400,-1.8072370353,0.7004913989,-0.9185550501,0.0000000000,0.0000000000,1500,1000,40.1021625058,-88.2270496760,0.2232567002,0.0487964970,0.0000000000,0.0000000000,0.0000000000,0.0000000000,181920,0.0000000000,1.0000000000,0.7146639228,0.7146639228
1508264393393,150393,RC,0,40.1021787433,-88.2267358693,0,26.7656255542,-0.0000000753,26.7656255542,26.7808874231,-1.9315856029,0.6719280481,0.0575958653,26.7656255542,-1.9179082670,0.7011591998,-0.9273387112,0.0000000000,0.0000000000,1500,1000,40.1021613722,-88.2270507435,-0.3801908887,0.0594139166,0.0000000000,0.0000000000,0.0000000000,0.0000000000,181921,0.0000000000,1.0000000000,0.6178321838,0.7260239720
1508264393594,150594,RC,0,40.1021787433,-88.2267358693,0,26.8522024472,-0.0000002746,26.8522024472,26.8613473908,-2.0140922390,0.7715861201,-0.0455967267,26.8522024472,-2.0238147143,0.7030410266,-0.9180043119,0.0000000000,0.0000000000,1500,1000,40.1021606302,-88.2270516895,0.5235260535,-0.1197004979,0.0000000000,0.0000000000,0.0000000000,0.0000000000,181921,0.0000000000,1.0000000000,0.7687389255,0.7744333148
1508264393794,150794,RC,0,40.1021787433,-88.2267358693,0,26.9415097662,-0.0000003052,26.9415097662,26.9468964162,-2.1365919828,0.6603283882,0.0257436065,26.9415097662,-2.1332948876,0.7050673259,-0.9159154566,0.0000000000,0.0000000000,1500,1000,40.1021595285,-88.2270526953,-0.3494294607,-0.0135263017,0.0000000000,0.0000000000,0.0000000000,0.0000000000,181921,0.0000000000,1.0000000000,0.6717133522,0.6489434242
1508264393995,150995,RC,0,40.1021787433,-88.2267358693,0,27.0275423566,-0.0000002691,27.0275423566,27.0215444861,-2.2357963901,0.7039811611,-0.0626136869,27.0275423566,-2.2407501051,0.7057593510,-0.9100637475,0.0000000000,0.0000000000,1500,1000,40.1021586363,-88.2270535730,-0.2243475309,-0.1311905821,0.0000000000,0.0000000000,0.0000000000,0.0000000000,181921,0.0000000000,1.0000000000,0.6627377868,0.7452244759
1508264394195,151195,RC,0,40.1021787433,-88.2267358693,0,27.1150694118,-0.0000003393,27.1150694118,27.1186890365,-2.3632072437,0.7060939074,0.0473420560,27.1150694118,-2.3526390607,0.7071134398,-0.9143159935,0.0000000000,0.0000000000,1500,1000,40.1021574905,-88.2270547152,-0.0074903714,0.1843504022,0.0000000000,0.0000000000,0.0000000000,0.0000000000,181921,0.0000000000,1.0000000000,0.6918581128,0.7203296423
1508264394396,151396,RC,0,40.1021787433,-88.2267358693,0,27.2018103307,-0.0000002587,27.2018103307,27.1991773988,-2.4670818372,0.7246293426,0.0351247512,27.2018103307,-2.4625334942,0.7088515365,-0.9073072951,0.0000000000,0.0000000000,1500,1000,40.1021565563,-88.2270556615,0.5338525850,-0.1097375767,0.0000000000,0.0000000000,0.0000000000,0.0000000000,181922,0.0000000000,1.0000000000,0.8000819087,0.6491767764
1508264394596,151596,RC,0,40.1021787433,-88.2267358693,0,27.2875425907,-0.0000001649,27.2875425907,27.2852791851,-2.5422310754,0.6434694529,0.0495237175,27.2875425907,-2.5632981519,0.7071383169,-0.8991841688,0.0000000000,0.0000000000,1500,1000,40.1021558805,-88.2270566738,-0.8688830793,0.1201368302,0.0000000000,0.0000000000,0.0000000000,0.0000000000,181922,0.0000000000,1.0000000000,0.5922196507,0.6947191954
1508264394797,151797,RC,0,40.1021787433,-88.2267358693,0,27.3721597602,-0.0000001622,27.3721597602,27.3748682140,-2.6617841537,0.7431143522,-0.0073449273,27.3721597602,-2.6676589681,0.7069437063,-0.8943572708,0.0000000000,0.0000000000,1500,1000,40.1021548053,-88.2270577272,-0.0723584419,0.0843575805,0.0000000000,0.0000000000,0.0000000000,0.0000000000,181922,0.0000000000,1.0000000000,0.7260312438,0.7601974010
1508264394997,151997,RC,0,40.1021787433,-88.2267358693,0,27.4646549398,-0.0000002966,27.4646549398,27.4949485787,-2.7548543078,0.7075599432,0.0269071593,27.4646549398,-2.7720010862,0.7039958454,-0.8918241993,0.0000000000,0.0000000000,1500,1000,40.1021539683,-88.2270591390,0.2108939513,-0.0842848585,0.0000000000,0.0000000000,0.0000000000,0.0000000000,181922,0.0000000000,1.0000000000,0.7146782279,0.7004415989
1508264395198,152198,RC,0,40.1021787433,-88.2267358693,0,27.5554641889,-0.0000002438,27.5554641889,27.5658685587,-2.8809678870,0.7132189274,0.0992656012,27.5554641889,-2.8796525056,0.7099167704,-0.8867934604,0.0000000000,0.0000000000,1500,1000,40.1021528342,-88.2270599728,0.0510508806,0.0173805705,0.0000000000,0.0000000000,0.0000000000,0.0000000000,181922,0.0000000000,1.0000000000,0.7231840491,0.7032538056
1508264395398,152398,RC,0,40.1021787433,-88.2267358693,0,27.6441740919,-0.0000001235,27.6441740919,27.6493336897,-2.9403645101,0.6861569881,0.0059632083,27.6441740919,-2.9749006076,0.7092313097,-0.8714976351,0.0000000000,0.0000000000,1500,1000,40.1021523000,-88.2270609542,-0.3655737562,-0.0564323125,0.0000000000,0.0000000000,0.0000000000,0.0000000000,181923,0.0000000000,1.0000000000,0.6747685075,0.6975454688
1508264395599,152599,RC,0,40.1021787433,-88.2267358693,0,27.7389560672,-0.0000002774,27.7389560672,27.7612065278,-3.0620673576,0.4356448650,0.1894409459,27.7389560672,-3.0746553334,0.7099047046,-0.8640992680,0.0000000000,0.0000000000,1500,1000,40.1021512055,-88.2270622695,-0.1677697743,0.1778054175,0.0000000000,0.0000000000,0.0000000000,0.0000000000,181923,0.0000000000,1.0000000000,0.4612710178,0.4100186825
1508264395799,152799,RC,0,40.1021787433,-88.2267358693,0,27.8377197996,-0.0000001971,27.8377197996,27.8575146991,-3.1675172127,0.7203296423,0.0788307045,27.8377197996,-3.1738626544,0.7243493122,-0.8368007128,0.0000000000,0.0000000000,1500,1000,40.1021502572,-88.2270634018,0.2398373280,-0.1495165393,0.0000000000,0.0000000000,0.0000000000,0.0000000000,181923,0.0000000000,1.0000000000,0.7345654368,0.7060939074
1508264396000,153000,RC,0,40.1021787433,-88.2267358693,0,27.9390400487,-0.0000002168,27.9390400487,27.9594363397,-3.2685934006,0.6804898977,-0.0242164434,27.9390400487,-3.2719981454,0.7271679516,-0.8195909537,0.0000000000,0.0000000000,1500,1000,40.1021493482,-88.2270646002,-0.4475315090,0.1999129214,0.0000000000,0.0000000000,0.0000000000,0.0000000000,181923,0.0000000000,1.0000000000,0.5609059334,0.8000739217
1508264396200,153200,RC,0,40.1021787433,-88.2267358693,0,28.0363553263,-0.0000002869,28.0363553263,28.0412004660,-3.3535648582,0.7075457573,0.1302451954,28.0363553263,-3.3656547554,0.7239357994,-0.8141896478,0.0000000000,0.0000000000,1500,1000,40.1021485840,-88.2270655615,0.0718493875,0.2468913671,0.0000000000,0.0000000000,0.0000000000,0.0000000000,181923,0.0000000000,1.0000000000,0.7545256615,0.6605658531
